     3.04           OBSERVATION DATA    M                   RINEX VERSION / TYPE
sbf2rin-15.6.1                          20250107 131818 UTC PGM / RUN BY / DATE
ABPO                                                        MARKER NAME
33302M001                                                   MARKER NUMBER
GGN                 JPL                                     OBSERVER / AGENCY
3013358             SEPT POLARX5        5.5.0               REC # / TYPE / VERS
CR6200342009        ASH701945G_M    SCIT                    ANT # / TYPE
  4097216.5539  4429119.1897 -2065771.1988                  APPROX POSITION XYZ
        0.0083        0.0000        0.0000                  ANTENNA: DELTA H/E/N
G   17 C1C L1C S1C C1W S1W C2W L2W S2W C2L L2L S2L C5Q L5Q  SYS / # / OBS TYPES
       S5Q C1L L1L S1L                                      SYS / # / OBS TYPES
E   15 C1C L1C S1C C6C L6C S6C C5Q L5Q S5Q C7Q L7Q S7Q C8Q  SYS / # / OBS TYPES
       L8Q S8Q                                              SYS / # / OBS TYPES
R   12 C1C L1C S1C C1P L1P S1P C2P L2P S2P C2C L2C S2C      SYS / # / OBS TYPES
C   18 C1P L1P S1P C5P L5P S5P C2I L2I S2I C7I L7I S7I C6I  SYS / # / OBS TYPES
       L6I S6I C7D L7D S7D                                  SYS / # / OBS TYPES
J   15 C1C L1C S1C C2L L2L S2L C5Q L5Q S5Q C1L L1L S1L C1Z  SYS / # / OBS TYPES
       L1Z S1Z                                              SYS / # / OBS TYPES
SEPTENTRIO RECEIVERS OUTPUT ALIGNED CARRIER PHASES.         COMMENT
NO FURTHER PHASE SHIFT APPLIED IN THE RINEX ENCODER.        COMMENT
G L1C                                                       SYS / PHASE SHIFT
G L2W                                                       SYS / PHASE SHIFT
G L2L  0.00000                                              SYS / PHASE SHIFT
G L5Q  0.00000                                              SYS / PHASE SHIFT
G L1L  0.00000                                              SYS / PHASE SHIFT
E L1C  0.00000                                              SYS / PHASE SHIFT
E L6C  0.00000                                              SYS / PHASE SHIFT
E L5Q  0.00000                                              SYS / PHASE SHIFT
E L7Q  0.00000                                              SYS / PHASE SHIFT
E L8Q  0.00000                                              SYS / PHASE SHIFT
R L1C                                                       SYS / PHASE SHIFT
R L1P  0.00000                                              SYS / PHASE SHIFT
R L2P  0.00000                                              SYS / PHASE SHIFT
R L2C                                                       SYS / PHASE SHIFT
C L1P  0.00000                                              SYS / PHASE SHIFT
C L5P  0.00000                                              SYS / PHASE SHIFT
C L2I                                                       SYS / PHASE SHIFT
C L7I                                                       SYS / PHASE SHIFT
C L6I                                                       SYS / PHASE SHIFT
C L7D                                                       SYS / PHASE SHIFT
J L1C                                                       SYS / PHASE SHIFT
J L2L  0.00000                                              SYS / PHASE SHIFT
J L5Q  0.00000                                              SYS / PHASE SHIFT
J L1L  0.00000                                              SYS / PHASE SHIFT
J L1Z  0.00000                                              SYS / PHASE SHIFT
    30.000                                                  INTERVAL
  2025     1     1     0     0    0.0000000     GPS         TIME OF FIRST OBS
  2025     1     1    23    59   30.0000000     GPS         TIME OF LAST OBS
   142                                                      # OF SATELLITES
 C1C    0.000 C1P    0.000 C2C    0.000 C2P    0.000        GLONASS COD/PHS/BIS
DBHZ                                                        SIGNAL STRENGTH UNIT
 25 R01  1 R02 -4 R03  5 R04  6 R05  1 R06 -4 R07  5 R08  6 GLONASS SLOT / FRQ #
    R09 -2 R10 -7 R11  0 R12 -1 R13 -2 R14 -7 R15  0 R16 -1 GLONASS SLOT / FRQ #
    R17  4 R18 -3 R19  3 R20  2 R21  4 R22 -3 R23  3 R24  2 GLONASS SLOT / FRQ #
    R26 -6                                                  GLONASS SLOT / FRQ #
This data is provided as a public service by NASA/JPL.      COMMENT
No warranty is expressed or implied regarding suitability   COMMENT
for use.  For further information, contact:                 COMMENT
ggnops at jpl dot nasa dot gov                              COMMENT
                                                            END OF HEADER
> 2025 01 01 00 00  0.0000000  0 57
C02                                                                                                  37514460.543 6 195347624.25206        40.906    37514458.139 7 151055165.06907        45.406    37514459.249 5 158735937.91905        34.562
C03                                                                                                                                                  39724452.949 5 159953916.59905        30.438
C05                                                                                                  36420537.525 7 189651349.23107        46.469    36420537.294 8 146650482.02608        48.531    36420536.052 6 154107278.49806        38.188
C06                                                                                                  40129932.174 5 208967110.16505        35.344    40129936.048 6 161586916.19706        37.344    40129931.899 4                        27.594
C07                                                                                                  39491251.069 5 205641374.82105        32.938    39491249.828 6 159014991.41406        40.375    39491245.357 4 167100451.43604        28.594
C08                                                                                                                                                  40864959.799 6 164546258.17306        36.031
C09                                                                                                  39678228.657 6 206615162.13206        38.969    39678232.799 6 159768131.84106        41.906    39678226.271 5 167891704.94805        30.188
C10                                                                                                  38413440.294 6 200029088.97806        39.000    38413440.502 7 154675220.03107        42.344    38413435.011 5 162539917.91405        31.156
C13                                                                                                  40637753.052 4                        25.250    40637771.128 5 163631475.43805        31.125
C16                                                                                                  40817351.988 6 212546888.28506        39.188    40817363.612 5 164354872.34305        35.156    40817354.352 4                        25.188
C20  26118172.811 5 137251901.12505        35.969    26118177.819 5 102493296.30105        32.406    26118173.263 6 136004151.85606        39.000                                                    26118172.912 5 110514505.23805        30.906    26118178.872 6 105167040.09506        40.000
C23  26033433.043 5 136806869.13605        35.469    26033432.265 4 102161083.72204        26.938    26033431.943 6 135563163.23206        37.812                                                    26033429.397 4                        28.938    26033432.392 5 104826176.05905        34.812
C27  21467903.987 8 112814721.68308        49.438    21467904.251 7  84244831.66707        42.281    21467903.227 8 111789135.96608        52.344                                                    21467903.632 7  90837869.60007        43.188    21467906.091 8  86442526.22208        51.250
C28  23548859.743 7 123750316.84007        44.281    23548860.029 5  92411066.82305        35.625    23548859.081 7 122625303.50707        46.281                                                    23548860.233 6  99643068.57206        36.844    23548862.696 7  94821789.57507        44.906
C30  23261341.190 7 122239224.70507        46.062    23261344.611 6  91282555.71406        37.219    23261340.412 8 121127975.04108        48.781                                                    23261344.377 6  98426398.27006        38.812    23261347.283 7  93663879.25707        47.344
C32  27201218.249 5 142943374.63005        33.500    27201227.434 4                        26.656    27201218.084 6 141643892.04106        36.875                                                    27201222.464 4                        26.188    27201227.731 5 109528091.77705        35.719
C37  22837403.746 8 120011553.88508        49.219    22837407.529 6  89619158.09006        41.688    22837402.136 8 118920547.03208        50.906                                                    22837407.116 7  96632746.00707        42.094    22837409.548 8  91957056.83408        50.031
C38  40836216.188 4 214595780.36604        26.250                                                    40836217.051 5                        32.812
C39  41589412.275 6 218553832.72406        37.344    41589414.333 4 163205802.36104        29.375    41589411.753 6 216566973.29706        40.031                                                    41589411.666 5 175978412.45205        30.219    41589415.743 6 167463345.50406        38.094
C40  40748204.943 5 214133258.28105        32.094                                                    40748204.330 6 212186597.82606        36.000                                                                                                    40748207.574 5 164076138.98605        35.781
C47  25884523.107 6 136024091.54706        38.000                                                    25884522.382 6 134787506.45806        39.938                                                    25884525.716 5 109525902.12505        30.250    25884527.889 6 104226270.10406        38.906
C48  25711845.343 5 135116623.45605        33.188    25711869.289 5 100898853.11605        30.562    25711843.962 6 133888285.75306        36.969                                                    25711848.043 4 108795204.93304        29.656    25711871.415 6 103531000.77306        38.688
C49  26415963.742 5 138816940.32105        35.188    26415961.333 4 103662196.31704        28.250    26415962.553 6 137554971.72506        36.594                                                    26415963.289 4 111774727.65604        28.844    26415964.286 6 106366295.58106        37.594
C56                                                                                                  38186541.788 6 198847492.04106        40.250                                                    38186543.159 5 161579880.65905        30.344
C60                                                                                                  37356495.820 7 194525120.90207        47.531                                                    37356482.659 6 158067619.19806        38.875    37356487.389 8 150419139.73108        48.562
E04  26041142.517 7 136847175.18407        42.250    26041141.812 4 111077192.09604        29.781    26041145.192 6 102191117.24506        36.375    26041146.947 7 104856967.92707        46.156    26041144.404 7 103524035.66607        45.750
E05  25592940.206 6 134491808.88906        37.656                                                    25592942.911 4 100432206.50404        29.062    25592944.528 6 103052171.42106        38.875    25592942.780 6 101742192.53806        38.531
E06  24991416.995 7 131330804.88207        45.312    24991415.153 5 106599657.81205        32.781    24991420.250 6  98071728.66406        38.688    24991422.045 8 100630128.17808        48.688    24991419.780 8  99350929.49808        48.312
E09  25031598.896 7 131541967.43407        45.656    25031597.783 5 106771054.74905        33.812    25031601.548 6  98229409.76906        39.125    25031602.940 8 100791921.68708        48.781    25031601.157 8  99510659.30608        48.500
E10  26529126.757 6 139411523.83506        41.656                                                    26529130.505 5 104106044.33205        34.312    26529132.590 7 106821847.55107        44.750    26529130.821 7 105463947.50207        44.281
E12  25486172.766 7 133930802.55107        42.312                                                    25486172.743 5 100013291.34305        35.750    25486174.060 7 102622342.08207        44.625    25486172.272 7 101317788.29307        44.469
E14  27422410.215 6 144105882.92506        36.969    27422406.889 3                        20.969    27422409.621 4 107611616.12604        26.875    27422411.367 6 110418872.03006        36.125    27422409.476 6 109015237.15106        36.000
E23  26988301.206 6 141824683.83206        39.469    26988298.416 4 115117344.22304        27.812    26988302.172 5 105908081.68705        31.844    26988303.631 6 108671019.62006        41.406    26988301.620 6 107289485.72606        41.094
E24  26368060.783 6 138565240.50406        39.656                                                    26368061.995 5 103474078.24205        35.438    26368063.490 7 106173458.68507        44.719    26368061.287 7 104823769.04707        44.500
E26  28185954.245 5 148118252.28405        31.875                                                    28185953.865 4 110607815.86404        27.125    28185954.842 6 113493327.44106        36.031    28185953.681 6 112050517.22306        36.000
E31  24813140.605 7 130394096.12407        45.188    24813137.180 5 105839298.24305        32.312    24813142.403 6  97372348.64006        37.688    24813143.303 7  99912454.70807        46.844    24813141.865 7  98642392.25307        46.656
E33  25045820.730 7 131616815.75007        45.656    25045819.625 5                        33.031    25045821.020 6  98285259.23606        38.000    25045822.413 7 100849294.78907        47.188    25045820.563 7  99567321.58607        47.000
G04  22449657.924 7 117973773.49707        43.406    22449657.558 5        32.312    22449662.601 5  91927631.35705        32.312    22449662.547 7  91927628.35807        43.375    22449661.222 6  88097312.62406        37.094    22449657.873 7 117973748.50507        44.375
G08  21762355.130 7 114362035.34307        46.719    21762354.451 8        48.062    21762361.055 8  89113332.27908        48.062    21762361.972 7  89113345.28607        44.438    21762355.460 6  85400257.57306        40.750
G09  24117721.448 5 126739477.09805        35.031    24117720.943 4        28.688    24117727.547 4  98758056.57504        28.688    24117727.498 5  98758052.60105        33.969
G16  22035544.524 7 115797764.43507        45.438    22035543.563 5        34.969    22035546.156 5  90232087.71505        34.969
G18  24472643.654 5 128604668.75905        35.094    24472643.288 3        18.219    24472646.807 3 100211455.92503        18.219    24472647.357 6 100211457.91606        36.625    24472646.238 5  96035998.64005        31.406    24472643.461 5 128604665.77005        35.812
G21  24530332.260 6 128907763.96306        36.688    24530331.035 3        20.250    24530337.304 3 100447627.62003        20.250
G26  21937780.352 7 115284036.88107        46.250    21937779.758 7        46.812    21937785.579 7  89831853.08307        46.812    21937785.503 7  89831863.08907        43.219    21937779.430 6  86088875.15906        40.375
G27  20883346.601 8 109742873.44408        50.312    20883345.949 9        55.781    20883350.517 9  85513998.98309        55.781    20883351.054 8  85513994.99008        48.094    20883345.540 7  81950896.97007        44.500
G28  22817560.997 7 119907212.90507        43.281    22817560.622 5        30.562    22817564.637 5  93434279.65905        30.562    22817564.740 7  93434297.66807        42.000    22817565.164 6  89541183.57306        36.938    22817560.956 7 119907239.91407        43.531
G31  20724554.906 8 108908422.01908        48.906    20724554.509 8        51.625    20724556.971 8  84863795.35608        51.625    20724557.414 7  84863811.35907        46.531
J03  37586955.499 5 197520826.52605        34.688    37586958.512 5 153912365.53705        35.812    37586955.278 4 147499315.70104        29.500    37586955.654 5 197520823.52905        35.031    37586952.668 5 197520805.83305        35.188
J07                                                                                                                                                                                                  41570778.230 5 218455910.50405        32.438
R05  23640109.696 6 126369929.22506        38.156    23640109.853 6 126369894.23506        37.406    23640121.445 5  98287728.96305        35.844    23640120.967 5  98287738.96205        35.969
R06  23271859.386 4                        28.750
R14  24432326.795 5                        33.156    24432326.885 5                        32.719    24432338.028 5 101296254.21205        32.875    24432337.223 5                        31.531
R15  21372922.542 7 114210602.65507        46.406    21372922.484 7 114210644.64707        46.469    21372931.232 7  88830631.65107        43.094    21372930.874 7  88830650.65607        43.594
R16  21284166.018 7 113696285.84607        47.312    21284166.183 7 113696267.84707        46.625    21284173.771 7  88430501.63807        43.625    21284173.476 7  88430499.63007        44.250
R17  22321844.473 6 119448785.06706        39.844    22321844.482 6 119448797.07706        39.219    22321853.167 6  92904801.20306        39.188    22321852.689 6  92904788.19406        38.875
R18  19433697.447 8 103738522.99808        48.781    19433697.711 8 103738530.00208        48.531    19433706.344 8  80685612.18208        48.781    19433706.161 8  80685609.18508        48.406
R19  20134760.455 6 107707436.55306        37.875    20134760.249 6 107707393.54406        37.312    20134769.791 7  83772487.07407        45.281    20134770.193 7  83772535.07107        45.219
> 2025 01 01 00 00 30.0000000  0 57
C02                                                                                                  37514378.699 6 195347199.94906        41.062    37514376.957 7 151054836.97807        45.000    37514377.423 5 158735593.13605        34.156
C03                                                                                                                                                  39724324.368 5 159953402.07705        30.594
C05                                                                                                  36420471.775 7 189651006.35407        46.406    36420471.276 8 146650216.89408        48.188    36420470.208 6 154106999.87906        38.281
C06                                                                                                  40134693.849 6 208991904.13306        36.531    40134697.343 6 161606088.46906        36.969    40134693.682 4                        27.156
C07                                                                                                  39494500.920 5 205658299.80605        33.469    39494499.786 6 159028078.84606        39.844    39494495.856 4 167114204.36804        28.844
C08                                                                                                                                                  40853921.801 6 164501810.88406        36.969
C09                                                                                                  39682400.999 6 206636888.05406        39.500    39682404.819 6 159784931.69006        41.594    39682398.949 5 167909359.06205        30.000
C10                                                                                                  38417453.222 6 200049988.10606        39.312    38417453.613 7 154691380.57907        42.031    38417448.678 5 162556900.19605        31.000
C13                                                                                                  40627078.529 4                        27.594    40627089.245 4 163588481.82304        29.125
C16                                                                                                  40822439.564 6 212573376.74606        39.844    40822448.407 5 164375354.93005        34.781    40822441.856 4                        25.250
C20  26128117.472 6 137304159.61006        37.000    26128121.251 5 102532320.51905        31.844    26128117.548 6 136055935.29606        39.656                                                    26128116.813 5 110556583.49105        30.000    26128123.547 6 105207082.34306        40.750
C23  26043728.601 6 136860965.24406        36.656    26043726.365 4 102201480.09004        26.812    26043724.841 6 135616767.54306        36.438                                                    26043723.184 4                        28.531    26043726.444 5 104867626.20305        34.812
C27  21468449.861 8 112817590.47008        49.969    21468450.009 7  84246973.97107        42.438    21468449.186 8 111791978.67308        52.375                                                    21468449.703 7  90840179.54807        43.125    21468451.934 8  86444724.40408        51.500
C28  23562596.590 7 123822502.49407        45.000    23562596.747 5  92464971.69805        35.844    23562596.117 7 122696832.92307        46.938                                                    23562596.799 6  99701192.08806        36.625    23562599.204 7  94877100.68207        45.125
C30  23247341.874 7 122165657.68207        46.250    23247345.227 6  91227619.36406        37.688    23247341.006 8 121055076.81308        48.812                                                    23247344.966 6  98367162.53706        38.938    23247347.791 7  93607509.78207        47.750
C32  27208801.182 5 142983216.72205        33.938    27208808.167 4                        26.750    27208799.314 5 141683371.90205        35.094                                                    27208804.691 4                        25.469    27208809.627 5 109558620.25205        34.656
C37  22838317.465 8 120016354.75308        49.969    22838321.047 6  89622743.14306        41.906    22838315.998 8 118925304.25308        51.219                                                    22838320.768 7  96636611.63007        42.125    22838323.047 8  91960735.40408        50.250
C38  40825870.320 4 214541409.11804        27.469                                                    40825870.580 5                        32.125
C39  41594965.669 5 218583017.07105        30.031                                                    41594964.002 5 216595892.37205        33.000                                                    41594966.312 3                        22.906    41594969.589 5 167485707.61805        31.875
C40  40752636.196 5 214156543.33205        32.781                                                    40752635.329 5 212209671.16405        35.812                                                                                                    40752638.537 6 164093980.77506        36.062
C47  25866381.476 6 135928755.73706        38.938                                                    25866379.803 6 134693037.33306        39.094                                                    25866383.303 5 109449138.29005        30.656    25866385.860 6 104153220.65206        38.969
C48  25720186.910 5 135160455.63605        34.031    25720209.948 5 100931584.89705        30.562    25720185.564 6 133931719.47906        36.625                                                    25720188.742 5 108830498.33305        30.812    25720212.083 6 103564586.40406        38.438
C49  26433619.055 6 138909722.39906        36.031    26433617.651 4 103731481.67404        28.062    26433618.756 6 137646910.30506        36.531                                                    26433618.437 4 111849435.27304        28.562    26433619.849 6 106437388.35606        37.594
C56                                                                                                  38188834.492 6 198859431.95106        40.656                                                    38188836.171 5 161589582.79205        31.062
C60                                                                                                  37356256.455 7 194523874.43607        47.562                                                    37356243.029 6 158066606.35306        38.875    37356247.997 8 150418175.90608        48.719
E04  26055929.208 6 136924884.51106        40.844    26055929.768 5 111140267.81705        30.156    26055932.397 5 102249146.88405        35.531    26055934.183 7 104916511.38607        45.719    26055932.096 7 103582822.20807        45.281
E05  25586866.670 6 134459893.29606        38.125                                                    25586869.854 4 100408373.41304        29.250    25586871.739 6 103027716.64106        39.562    25586869.522 6 101718048.61706        39.125
E06  25002836.965 7 131390818.79507        44.469    25002835.441 5 106648370.37305        33.062    25002840.538 6  98116544.22206        38.688    25002842.293 8 100676112.83708        48.438    25002840.175 8  99396329.60308        48.125
E09  25038242.266 7 131576876.96107        46.062    25038241.139 5 106799390.39605        34.250    25038245.087 6  98255478.53406        39.219    25038246.198 8 100818670.50608        48.750    25038244.286 8  99537068.09808        48.500
E10  26513067.391 6 139327132.62506        41.250                                                    26513071.643 5 104043024.96105        34.594    26513073.094 7 106757184.23407        44.438    26513071.593 7 105400106.17407        44.156
E12  25472716.867 6 133860093.17406        41.562                                                    25472716.854 5  99960488.96105        35.562    25472718.278 7 102568162.22907        44.594    25472716.691 7 101264297.17107        44.500
E14  27450358.455 6 144252752.93706        37.281    27450354.660 3                        20.344    27450357.995 4 107721291.82404        26.688    27450360.059 6 110531408.81706        36.031    27450357.909 5 109126343.38305        35.781
E23  26993128.783 6 141850058.89406        38.562    26993127.858 4 115137940.88004        28.156    26993130.827 5 105927030.56305        32.094    26993132.645 6 108690462.82606        41.250    26993130.330 6 107308681.77506        41.000
E24  26363722.460 6 138542443.01206        39.531                                                    26363723.636 5 103457054.20905        35.125    26363724.953 7 106155990.52907        44.344    26363723.009 7 104806522.94707        44.188
E26  28196517.708 5 148173762.28005        32.531                                                    28196517.645 4 110649268.17504        28.188    28196517.849 6 113535861.13506        36.062    28196516.915 6 112092510.24006        36.219
E31  24813680.447 7 130396933.54207        44.719    24813677.196 5 105841601.36505        32.188    24813682.056 6  97374467.49806        37.656    24813683.633 7  99914628.81907        47.188    24813681.778 7  98644538.73607        46.906
E33  25045352.136 7 131614352.18807        45.438    25045350.549 5                        32.906    25045352.216 6  98283419.59606        37.969    25045353.649 7 100847407.16507        47.031    25045351.750 7  99565457.95707        46.875
G04  22450079.196 7 117975987.28807        43.312    22450078.834 5        32.312    22450083.828 5  91929356.33405        32.312    22450084.115 7  91929353.33007        43.500    22450082.499 6  88098965.75506        36.844    22450079.231 7 117975962.28107        44.625
G08  21755236.872 7 114324629.07207        47.000    21755236.193 8        48.000    21755242.859 8  89084184.59408        48.000    21755243.561 7  89084197.60307        44.438    21755237.380 6  85372324.39606        40.750
G09  24111123.387 5 126704803.47605        35.812    24111122.882 4        27.875    24111129.530 4  98731038.16504        27.875    24111131.087 5  98731034.16705        34.594    24111123.672 4  94617231.98914        27.562
G16  22034106.809 7 115790207.58307        45.812    22034105.853 5        35.375    22034108.324 5  90226199.27405        35.375
G18  24486377.386 5 128676839.90905        35.312    24486377.073 2        17.688    24486380.641 2 100267693.22302        17.688    24486381.445 6 100267695.22706        36.656    24486380.134 5  96089892.76905        31.094    24486377.778 6 128676836.92206        36.219
G21  24512524.561 6 128814182.54106        37.156    24512523.296 3        20.594    24512529.542 3 100374707.07203        20.594
G26  21939473.461 7 115292934.48407        46.094    21939472.862 7        46.500    21939478.375 7  89838786.27607        46.500    21939478.612 7  89838796.28707        43.594    21939472.669 6  86095519.47806        40.594
G27  20886476.585 8 109759322.39208        50.125    20886475.928 9        55.656    20886480.721 9  85526816.36409        55.656    20886481.361 8  85526812.37108        48.531    20886475.784 7  81963180.29207        44.719
G28  22833152.012 7 119989143.39007        43.594    22833151.641 5        30.406    22833155.205 5  93498121.53305        30.406    22833155.647 7  93498139.53507        42.031    22833156.317 6  89602365.35206        37.312    22833151.890 7 119989170.39707        44.188
G31  20731142.443 8 108943038.86208        48.969    20731142.046 8        51.562    20731144.303 8  84890769.49308        51.562    20731144.902 7  84890785.50007        47.000
J03  37586652.068 5 197519231.30705        35.094    37586654.626 6 153911122.53406        36.156    37586651.924 4 147498124.45204        29.969    37586652.286 6 197519228.29606        36.031    37586649.028 6 197519210.62506        36.000
J07                                                                                                                                                                                                  41570762.750 5 218455836.98005        32.656
R05  23657126.376 6 126460890.85706        37.188    23657126.224 6 126460855.84706        36.812    23657139.176 6  98358476.87006        37.125    23657139.037 6  98358486.87406        37.500
R06  23280216.348 4                        28.125
R14  24442693.520 5 130293302.68915        31.219    24442694.159 5 130293375.69615        31.281    24442703.536 5 101339228.64205        32.750    24442703.183 5 101339424.65215        32.500
R15  21374329.463 7 114218125.35907        46.156    21374329.754 7 114218167.35707        46.125    21374338.479 7  88836482.63707        43.219    21374338.475 7  88836501.63607        43.031
R16  21274097.610 7 113642505.22307        46.875    21274098.008 7 113642487.22207        46.438    21274106.276 7  88388672.27507        43.969    21274106.182 7  88388670.28607        43.969
R17  22342529.059 6 119559471.32106        40.000    22342528.617 6 119559483.32606        39.031    22342537.866 6  92990890.53006        38.562    22342537.579 6  92990877.52306        39.094
R18  19437241.585 8 103757440.42108        48.938    19437241.621 8 103757447.42408        48.625    19437250.312 8  80700325.75808        48.969    19437250.352 8  80700322.76008        48.594
R19  20119106.396 6 107623700.80006        37.250    20119106.289 6 107623657.81806        36.844    20119115.929 7  83707359.32307        45.125    20119116.224 7  83707407.32307        45.031
> 2025 01 01 00 01  0.0000000  0 57
C02                                                                                                  37514296.670 6 195346771.96306        40.656    37514294.674 7 151054506.03207        45.094    37514295.354 5 158735245.37005        33.938
C03                                                                                                                                                  39724196.688 5                        30.562
C05                                                                                                  36420405.235 7 189650660.46807        46.188    36420404.826 8 146649949.44608        48.500    36420403.812 6 154106718.84306        38.094
C06                                                                                                  40139471.870 6 209016785.01906        36.062    40139475.369 6 161625327.92706        37.531    40139471.426 4                        27.219
C07                                                                                                  39497737.742 5 205675161.03805        31.656    39497737.387 6 159041116.99106        39.625    39497734.298 4 167127905.41904        28.438
C08                                                                                                                                                  40842875.071 6 164457330.36906        36.594
C09                                                                                                  39686591.735 6 206658712.34506        39.062    39686596.244 7 159801807.60307        42.125    39686589.426 4 167927093.05804        29.844
C10                                                                                                  38421455.971 6 200070835.62806        38.750    38421456.783 6 154707501.20906        41.906    38421452.030 5 162573840.52905        30.875
C13                                                                                                  40616394.122 4                        28.094    40616399.812 4 163545440.65304        29.625
C16                                                                                                  40827541.067 6 212599944.99906        39.219    40827550.553 5 164395899.19705        35.219    40827544.106 4                        25.031
C20  26138045.170 6 137356326.38406        38.031    26138048.426 5 102571276.21605        31.312    26138043.552 6 136107627.80606        38.781                                                    26138044.386 5 110598587.88905        30.250    26138049.827 6 105247054.27806        40.062
C23  26054061.822 6 136915262.79506        37.375    26054059.009 4 102242026.78104        28.062    26054056.412 5 135670571.46205        34.688                                                    26054055.354 4                        28.875    26054059.812 5 104909230.73805        34.812
C27  21469086.105 8 112820933.49708        49.875    21469086.114 7  84249470.41107        42.219    21469085.448 8 111795291.30908        52.219                                                    21469085.858 7  90842871.35907        42.906    21469088.106 8  86447285.96608        51.312
C28  23576385.660 7 123894965.45707        44.594    23576385.906 6  92519083.66706        36.031    23576385.280 7 122768637.13207        46.656                                                    23576385.583 6  99759538.88506        36.250    23576388.372 7  94932624.24707        44.906
C30  23233400.856 7 122092397.59907        46.156    23233404.272 6  91172912.23206        37.750    23233400.028 8 120982482.72908        48.656                                                    23233403.769 6  98308173.95206        38.656    23233407.024 7  93551375.49507        47.625
C32  27216319.346 5 143022734.50105        31.531    27216327.382 4                        26.094    27216319.101 5 141722530.41905        34.281                                                    27216324.528 4                        24.688    27216330.063 5 109588900.28905        33.969
C37  22839274.668 8 120021384.73508        49.875    22839278.397 6  89626499.27306        41.750    22839273.040 8 118930288.50008        50.812                                                    22839277.734 6  96640661.72806        41.844    22839280.367 8  91964589.52908        50.156
C38  40815529.003 4 214487048.36904        28.938                                                    40815524.312 5                        30.625
C39  41600531.192 5 218612261.50705        32.156    41600531.076 3                        23.156    41600528.679 5 216624870.91605        33.094                                                    41600530.703 3                        23.844    41600534.155 5 167508115.62105        32.031
C40  40757050.567 5 214179742.00905        32.781                                                    40757049.883 5 212232658.95105        34.969                                                                                                    40757052.720 5 164111756.40705        35.969
C47  25848259.616 6 135833524.31706        38.875                                                    25848258.703 6 134598671.70206        40.156                                                    25848262.431 5 109372458.56605        30.500    25848262.605 6 104080251.26606        38.188
C48  25728532.977 5 135204317.28105        33.375    25728555.613 4 100964338.64404        28.531    25728531.582 5 133975182.37505        35.625                                                    25728535.855 5 108865815.49505        32.000    25728558.128 6 103598194.60506        37.750
C49  26451288.809 5 139002574.79305        35.531    26451286.587 4 103800819.52504        28.000    26451288.478 6 137738918.59906        37.406                                                    26451287.716 4 111924199.56904        28.219    26451288.771 6 106508535.03806        37.031
C56                                                                                                  38191112.040 6 198871292.97306        39.906                                                    38191114.099 5 161599220.86405        30.500
C60                                                                                                  37356016.792 7 194522627.01607        47.281                                                    37356003.559 6 158065592.74506        38.656    37356008.486 8 150417211.33908        48.688
E04  26070720.869 6 137002614.28806        40.625    26070721.786 5 111203360.11205        30.969    26070723.637 5 102307191.76405        35.438    26070725.254 7 104976070.50807        45.688    26070723.654 7 103641624.21407        45.250
E05  25580860.770 6 134428330.75906        38.125                                                    25580864.213 5 100384804.00305        30.656    25580865.588 6 103003532.37506        40.000    25580863.479 6 101694171.77206        39.750
E06  25014292.277 7 131451015.43407        44.562    25014290.516 5 106697231.24305        33.094    25014295.765 6  98161496.18406        38.969    25014297.135 8 100722237.49808        48.219    25014295.303 8  99441867.92108        48.062
E09  25044944.855 7 131612098.52907        46.188    25044943.747 5 106827979.28305        34.375    25044947.203 6  98281780.31906        39.031    25044948.703 8 100845658.42508        48.812    25044946.773 8  99563712.94608        48.500
E10  26497010.875 6 139242753.69706        41.031                                                    26497014.854 5 103980014.84205        34.750    26497016.082 7 106692530.33507        44.406    26497014.750 7 105336274.15807        44.156
E12  25459293.243 6 133789552.16606        41.500                                                    25459293.372 5  99907812.28005        35.469    25459294.506 7 102514111.38107        44.719    25459293.121 7 101210933.40907        44.562
E14  27478242.396 6 144399287.27006        36.031    27478239.285 3                        20.281    27478242.571 4 107830716.75804        26.344    27478244.434 6 110643688.35906        36.250    27478242.481 5 109237195.63605        35.812
E23  26997951.565 6 141875403.68406        37.969    26997950.359 4 115158512.94004        27.750    26997953.860 5 105945956.86105        31.781    26997955.780 6 108709882.84206        41.500    26997953.264 6 107327854.92206        41.094
E24  26359372.375 6 138519582.90306        39.312                                                    26359373.121 5 103439983.39605        34.688    26359374.174 7 106138474.37307        43.938    26359372.763 7 104789229.45807        43.812
E26  28207136.196 5 148229568.52305        30.844                                                    28207137.385 4 110690941.72604        28.031    28207137.611 6 113578621.81206        36.219    28207136.615 6 112134727.34106        36.250
E31  24814208.584 7 130399707.77507        44.719    24814204.739 5 105843853.15605        32.281    24814210.082 6  97376539.17706        37.469    24814211.953 7  99916754.53707        47.562    24814209.719 7  98646637.43007        47.125
E33  25044960.559 7 131612295.23707        45.094    25044958.932 5                        33.000    25044960.868 6  98281883.60306        37.906    25044962.310 7 100845831.09407        47.344    25044960.267 7  99563901.92207        47.094
G04  22450591.433 6 117978680.94906        41.781    22450591.080 5        31.469    22450596.302 5  91931455.25405        31.469    22450596.360 7  91931452.25507        43.750    22450595.098 6  88100977.19506        36.625    22450591.181 7 117978655.95907        43.000
G08  21748183.346 7 114287562.29407        46.750    21748182.667 7        47.250    21748188.976 7  89055301.44807        47.250    21748189.968 7  89055314.46007        44.000    21748183.515 6  85344644.72406        40.750
G09  24104610.660 6 126670573.76706        36.156    24104610.146 4        27.781    24104615.162 4  98704365.72004        27.781    24104614.965 5  98704361.71605        32.625    24104609.670 4  94591670.94504        27.375
G16  22032661.650 7 115782612.34407        46.219    22032660.689 6        36.094    22032663.313 6  90220280.91106        36.094
G18  24500187.901 6 128749412.79506        36.312    24500187.615 3        18.906    24500190.329 3 100324243.55103        18.906    24500191.147 6 100324245.55206        36.375    24500190.409 5  96144086.83205        31.438    24500187.998 6 128749409.79506        37.281
G21  24494708.980 6 128720558.43906        38.156    24494707.733 3        20.969    24494713.268 3 100301753.28203        20.969
G26  21941181.123 7 115301908.04007        46.062    21941180.520 7        46.562    21941185.903 7  89845778.65907        46.562    21941186.060 7  89845788.65707        43.656    21941180.085 6  86102220.50806        40.406
G27  20889668.294 8 109776094.67108        50.250    20889667.642 9        55.719    20889672.354 9  85539885.69109        55.719    20889672.765 8  85539881.69908        48.281    20889667.542 7  81975705.05807        44.781
G28  22848805.150 7 120071402.30607        43.438    22848804.793 5        30.375    22848808.382 5  93562219.34105        30.375    22848809.169 6  93562237.34706        41.969    22848809.437 6  89663792.40506        36.969    22848805.224 7 120071429.30807        43.844
G31  20737827.312 8 108978166.47808        49.438    20737826.915 8        51.906    20737829.149 8  84918141.63808        51.906    20737829.762 7  84918157.64307        47.250
J03  37586387.097 5 197517836.53605        34.969    37586389.636 5 153910035.72805        35.406    37586386.264 4 147497082.95204        29.812    37586386.572 5 197517833.52805        35.781    37586383.171 5 197517815.84005        35.938
J07                                                                                                                                                                                                  41570749.468 5 218455764.23205        32.219
R05  23674111.605 6 126551684.43606        37.250    23674111.417 6 126551649.41506        36.375    23674122.021 5  98429094.02705        35.531    23674121.990 5  98429104.01705        35.844
R06  23288645.427 4                        27.844
R14  24453111.442 3                        22.125                                                    24453116.786 5                        31.156    24453115.266 5                        31.656
R15  21375782.654 7 114225890.24907        46.594    21375783.057 7 114225932.25507        46.562    21375791.804 7  88842521.98707        43.125    21375791.576 7  88842540.98407        43.281
R16  21264029.733 7 113588720.83607        46.750    21264029.634 7 113588702.83607        46.625    21264037.178 7  88346839.96907        44.250    21264037.044 7  88346837.95907        44.156
R17  22363283.200 6 119670533.91906        39.688    22363283.616 6 119670545.92406        39.000    22363292.391 6  93077272.55206        38.812    22363292.489 6  93077259.54506        38.719
R18  19440936.660 8 103777165.47608        48.812    19440936.893 8 103777172.48008        48.844    19440945.409 8  80715667.49208        48.938    19440945.231 8  80715664.48508        48.531
R19  20103568.459 6 107540583.96906        37.781    20103569.233 6 107540540.96406        37.469    20103578.135 7  83642712.95307        45.281    20103578.430 7  83642760.94607        45.031
> 2025 01 01 00 01 30.0000000  0 57
C02                                                                                                  37514213.956 6 195346341.03006        40.812    37514211.861 7 151054172.82307        45.281    37514213.047 5 158734895.20205        34.312
C03                                                                                                                                                  39724067.836 5 159952370.01505        31.312
C05                                                                                                  36420338.485 7 189650312.44107        46.344    36420338.170 8 146649680.33808        48.625    36420336.967 6 154106436.04406        38.031
C06                                                                                                  40144267.898 6 209041753.47706        36.688    40144269.617 6 161644635.12806        36.500    40144265.879 4                        27.750
C07                                                                                                  39500963.729 5 205691959.32005        32.000    39500963.405 6 159054106.51806        39.906    39500959.547 4 167141555.44004        28.719
C08                                                                                                                                                  40831819.461 6 164412817.92606        36.500
C09                                                                                                  39690801.465 6 206680635.69706        38.938    39690806.538 7 159818760.10107        42.406    39690799.876 5 167944907.54405        30.094
C10                                                                                                  38425450.036 6 200091632.08406        38.781    38425450.807 7 154723582.36607        42.062    38425445.692 5 162590739.37105        31.344
C13                                                                                                  40605690.607 4                        27.281    40605701.699 5 163502353.25505        31.219
C16                                                                                                  40832658.716 6 212626593.58906        39.312    40832668.658 6 164416505.56206        36.031    40832661.397 4                        25.500
C20  26147953.975 6 137408400.00606        37.688    26147958.178 5 102610162.38405        32.719    26147954.113 6 136159228.04106        40.375                                                    26147953.383 5 110640517.36405        31.344    26147959.352 6 105286954.85906        41.094
C23  26064431.655 6 136969762.70706        36.188    26064431.477 4 102282724.65604        29.281    26064429.384 6 135724575.86806        36.156                                                    26064426.042 4                        28.812    26064431.801 5 104950990.26505        35.812
C27  21469812.549 8 112824751.15408        49.562    21469812.518 7  84252321.27807        42.312    21469811.919 8 111799074.25708        52.469                                                    21469812.221 7  90845945.33407        43.312    21469814.747 8  86450211.20208        51.531
C28  23590227.257 7 123967704.39607        44.000    23590227.771 5  92573401.72105        35.625    23590227.195 7 122840714.82007        46.625                                                    23590227.251 6  99818107.90906        36.188    23590229.920 7  94988359.31307        44.938
C30  23219519.117 7 122019446.93807        46.438    23219522.292 6  91118436.15506        38.031    23219517.941 8 120910195.24308        48.969                                                    23219521.789 6  98249434.50106        39.156    23219524.574 7  93495478.29107        47.438
C32  27223777.313 5 143061928.07405        33.125    27223786.873 4                        28.625    27223776.928 6 141761367.70706        36.562                                                    27223782.677 4                        25.969    27223787.506 6 109618931.90706        36.312
C37  22840275.893 8 120026645.95508        49.656    22840279.690 6  89630428.09506        41.750    22840274.234 8 118935501.89208        51.125                                                    22840278.825 7  96644898.02007        42.031    22840281.963 8  91968620.83508        50.469
C38  40805187.662 4 214432699.84104        29.531                                                    40805182.654 5                        31.531
C39  41606107.607 5 218641566.15805        35.719    41606109.436 4                        25.094    41606105.323 6 216653909.13206        36.094                                                    41606107.168 4                        26.969    41606109.939 5 167530569.80805        34.062
C40  40761447.256 5 214202855.01505        32.031                                                    40761449.282 5 212255561.84305        35.719                                                                                                    40761451.081 5 164129466.40105        35.844
C47  25830157.729 6 135738400.13606        38.219                                                    25830157.269 6 134504412.24706        39.656                                                    25830159.632 5 109295865.09805        30.219    25830161.005 6 104007363.97406        38.375
C48  25736884.070 5 135248207.00205        31.062    25736907.729 4 100997113.38004        28.312    25736884.370 5 134018673.03605        35.875                                                    25736887.784 5 108901155.20105        32.281    25736910.455 6 103631824.30906        38.812
C49  26468971.261 5 139095496.42405        35.125    26468969.379 4 103870209.16504        27.594    26468970.134 6 137830995.51406        37.719                                                    26468969.873 4 111999019.64004        28.562    26468971.183 6 106579734.77206        37.281
C56                                                                                                  38193374.821 6 198883075.88506        40.188                                                    38193376.805 5 161608795.45305        30.938
C60                                                                                                  37355777.339 7 194521379.48907        47.438                                                    37355763.775 6 158064579.04106        39.188    37355768.867 8 150416246.68808        48.531
E04  26085516.531 6 137080363.43506        41.594    26085515.888 4 111266468.11804        29.688    26085518.924 5 102365251.10705        35.000    26085520.764 7 105035644.45907        45.406    26085518.914 7 103700440.86207        44.938
E05  25574922.265 6 134397122.65206        38.531                                                    25574925.123 5 100361499.27705        30.594    25574926.426 6 102979619.68406        40.219    25574924.786 6 101670563.05606        39.969
E06  25025782.091 7 131511393.65807        44.812    25025780.231 5 106746239.52605        33.406    25025785.230 6  98206583.78506        38.688    25025786.533 7 100768501.29207        47.750    25025785.041 7  99487543.61207        47.594
E09  25051706.438 7 131647631.47407        46.094    25051705.428 5 106856820.95305        34.250    25051708.724 6  98308314.60806        38.625    25051710.183 8 100872884.92508        48.469    25051708.521 8  99590593.34108        48.188
E10  26480957.027 6 139158389.96706        41.594                                                    26480960.833 5 103917016.02605        34.594    26480962.440 7 106627888.07507        44.312    26480960.796 7 105272453.62507        44.031
E12  25445902.229 6 133719182.62506        41.312                                                    25445902.211 5  99855263.66605        35.344    25445903.653 7 102460191.92007        44.719    25445902.232 7 101157699.37007        44.531
E14  27506063.519 6 144545485.87506        36.719    27506060.542 3                        21.062    27506063.529 4 107939891.05904        27.625    27506065.024 5 110755710.67505        35.938    27506063.152 5 109347793.93505        35.875
E23  27002769.799 6 141900719.90806        39.031    27002767.859 4 115179061.77704        27.125    27002771.503 5 105964861.79005        31.625    27002773.298 6 108729280.95106        41.312    27002770.853 6 107347006.44506        40.938
E24  26355010.837 6 138496660.48606        40.312                                                    26355011.324 5 103422866.04305        34.656    26355012.627 7 106120910.47107        44.188    26355010.670 7 104771888.83407        43.938
E26  28217811.276 4 148285670.73904        29.781                                                    28217812.537 4 110732836.25004        26.969    28217813.827 6 113621609.22106        36.094    28217812.473 5 112177168.30805        35.938
E31  24814724.656 7 130402419.97407        44.812    24814721.101 5 105846054.60905        32.281    24814726.369 6  97378564.50906        37.750    24814728.150 7  99918832.72307        47.562    24814725.889 7  98648689.19207        47.156
E33  25044646.984 7 131610646.20407        45.438    25044645.013 5                        32.781    25044646.850 6  98280652.22106        37.688    25044648.789 7 100844567.58407        47.375    25044646.433 7  99562654.47907        47.000
G04  22451195.256 6 117981854.22506        41.562    22451194.894 5        30.969    22451200.166 5  91933927.92105        30.969    22451200.349 7  91933924.92007        43.656    22451198.980 6  88103346.80506        36.656    22451195.224 7 117981829.21807        42.656
G08  21741194.399 7 114250835.47907        46.062    21741193.720 7        46.844    21741200.056 7  89026683.21607        46.844    21741200.981 7  89026696.22507        44.125    21741194.724 6  85317218.92406        41.031
G09  24098180.048 5 126636789.19305        33.938    24098179.530 4        27.188    24098186.040 4  98678040.12404        27.188    24098187.113 5  98678036.13305        34.281    24098182.144 5  94566442.21305        30.125
G16  22031209.122 7 115774980.05507        46.000    22031208.166 5        35.875    22031210.901 5  90214333.67705        35.875
G18  24514075.037 6 128822386.26406        37.406    24514074.774 3        19.156    24514076.584 3 100381106.02303        19.156    24514077.881 6 100381108.04006        36.531    24514076.744 5  96198580.04805        30.688    24514075.447 6 128822383.25506        37.781
G21  24476885.090 6 128626894.78406        37.500    24476883.870 3        20.875    24476889.467 3 100228768.67103        20.875
G26  21942903.921 7 115310959.56207        46.531    21942903.327 7        46.750    21942908.647 7  89852831.79507        46.750    21942909.027 7  89852841.80407        43.438    21942902.636 6  86108979.75206        40.344
G27  20892921.487 8 109793189.40108        50.500    20892920.830 9        55.812    20892925.301 9  85553206.27509        55.812    20892925.864 8  85553202.28008        48.281    20892920.524 7  81988470.62307        44.781
G28  22864520.763 7 120153988.87107        43.125    22864520.415 5        30.344    22864523.880 5  93626572.44605        30.344    22864523.678 6  93626590.44206        41.062    22864525.202 6  89725464.10406        36.750    22864520.744 7 120154015.87007        43.719
G31  20744609.026 8 109013805.57508        49.188    20744608.629 8        51.844    20744611.235 8  84945912.34108        51.844    20744611.468 7  84945928.33707        46.906
J03  37586159.444 5 197516642.91705        34.594    37586162.431 6 153909105.65006        36.656    37586159.197 4 147496191.64804        29.688    37586159.027 5 197516639.89505        35.875    37586155.290 5 197516622.21005        35.188
J07                                                                                                                                                                                                  41570736.632 5 218455693.15605        32.000
R05  23691064.221 6 126642307.65906        36.594    23691064.181 5 126642272.65505        35.750    23691075.702 6  98499578.72806        36.000    23691075.111 6  98499588.72506        36.531
R06  23297150.746 4                        26.781
R14                                                                                                  24463577.823 5 101425771.02905        31.625    24463578.104 5 101425967.02205        32.781
R15  21377281.804 7 114233900.13807        46.750    21377282.032 7 114233942.14307        46.500    21377290.918 7  88848751.87007        43.375    21377290.775 7  88848770.87907        43.469
R16  21253961.242 7 113534936.18507        47.062    21253961.125 7 113534918.18407        46.750    21253969.505 7  88305007.45907        44.938    21253969.594 7  88305005.47007        45.031
R17  22384107.468 6 119781969.59506        39.500    22384107.651 6 119781981.59406        38.906    22384116.538 6  93163944.72706        38.344    22384116.319 6  93163931.73206        38.938
R18  19444783.010 8 103797697.78108        48.844    19444783.305 8 103797704.78108        48.906    19444791.718 8  80731637.06808        48.844    19444791.508 8  80731634.07908        48.406
R19  20088147.682 6 107458091.01306        38.125    20088147.490 6 107458048.01206        37.281    20088157.202 7  83578551.80007        45.625    20088157.595 7  83578599.79907        45.562
> 2025 01 01 00 02  0.0000000  0 57
C02                                                                                                  37514130.493 6 195345906.06406        40.781    37514128.277 7 151053836.50807        45.562    37514129.226 5 158734541.79605        34.719
C03                                                                                                                                                  39723939.321 5 159951852.53905        31.219
C05                                                                                                  36420270.883 7 189649961.13007        46.000    36420270.590 8 146649408.69208        48.688    36420269.441 6 154106150.58306        38.406
C06                                                                                                  40149079.788 6 209066807.95006        36.375    40149080.456 6 161664008.85606        36.406    40149077.390 4                        27.375
C07                                                                                                  39504177.422 5 205708693.37405        31.531    39504177.178 6 159067046.33406        40.156    39504173.109 4 167155153.23004        28.812
C08                                                                                                                                                  40820757.225 6 164368273.17106        37.062
C09                                                                                                  39695030.069 6 206702656.79506        38.562    39695035.665 7 159835788.19207        42.219    39695028.314 5 167962801.48605        30.938
